{"type":"FeatureCollection","features":[{"type":"Feature","properties":{"County":"Brown","Yr_1987":"37,644","Yr_1992":"35,596","Yr_1997":"36,712","Yr_2002":"39,294","Yr_2007":"39,020","Yr_2012":"44,524","Yr_2017":"45,230","":""},"geometry":{"type":"Point","coordinates":[-87.99618,44.478809]}},{"type":"Feature","properties":{"County":"Calumet","Yr_1987":"29,544","Yr_1992":"26,190","Yr_1997":"22,020","Yr_2002":"22,499","Yr_2007":"28,222","Yr_2012":"30,160","Yr_2017":"30,260","":""},"geometry":{"type":"Point","coordinates":[-88.218052,44.090003]}},{"type":"Feature","properties":{"County":"Clark","Yr_1987":"64,571","Yr_1992":"59,518","Yr_1997":"59,735","Yr_2002":"63,326","Yr_2007":"64,438","Yr_2012":"71,641","Yr_2017":"66,655","":""},"geometry":{"type":"Point","coordinates":[-90.616128,44.738868]}},{"type":"Feature","properties":{"County":"Dane","Yr_1987":"65,246","Yr_1992":"58,420","Yr_1997":"50,432","Yr_2002":"46,838","Yr_2007":"51,451","Yr_2012":"49,924","Yr_2017":"53,945","":""},"geometry":{"type":"Point","coordinates":[-89.423867,43.075193]}},{"type":"Feature","properties":{"County":"Dodge","Yr_1987":"61,361","Yr_1992":"54,930","Yr_1997":"46,487","Yr_2002":"42,036","Yr_2007":"40,639","Yr_2012":"37,301","Yr_2017":"38,880","":""},"geometry":{"type":"Point","coordinates":[-88.707514,43.41528]}},{"type":"Feature","properties":{"County":"Fond du Lac","Yr_1987":"51,742","Yr_1992":"45,481","Yr_1997":"40,210","Yr_2002":"42,456","Yr_2007":"47,256","Yr_2012":"59,491","Yr_2017":"58,855","":""},"geometry":{"type":"Point","coordinates":[-88.488206,43.762674]}},{"type":"Feature","properties":{"County":"Grant","Yr_1987":"66,728","Yr_1992":"58,995","Yr_1997":"52,702","Yr_2002":"46,564","Yr_2007":"46,303","Yr_2012":"46,466","Yr_2017":"45,080","":""},"geometry":{"type":"Point","coordinates":[-90.676633,42.87612]}},{"type":"Feature","properties":{"County":"Green","Yr_1987":"50,326","Yr_1992":"40,379","Yr_1997":"36,951","Yr_2002":"31,107","Yr_2007":"30,390","Yr_2012":"26,978","Yr_2017":"25,207","":""},"geometry":{"type":"Point","coordinates":[-89.602179,42.680497]}},{"type":"Feature","properties":{"County":"Kewaunee","Yr_1987":"29,917","Yr_1992":"28,279","Yr_1997":"26,363","Yr_2002":"28,303","Yr_2007":"34,774","Yr_2012":"45,327","Yr_2017":"50,896","":""},"geometry":{"type":"Point","coordinates":[-87.514932,44.458354]}},{"type":"Feature","properties":{"County":"Lafayette","Yr_1987":"44,054","Yr_1992":"39,947","Yr_1997":"33,830","Yr_2002":"30,090","Yr_2007":"30,737","Yr_2012":"30,831","Yr_2017":"31,166","":""},"geometry":{"type":"Point","coordinates":[-90.131729,42.661137]}},{"type":"Feature","properties":{"County":"Manitowoc","Yr_1987":"47,283","Yr_1992":"41,371","Yr_1997":"43,282","Yr_2002":"42,462","Yr_2007":"45,704","Yr_2012":"52,502","Yr_2017":"54,474","":""},"geometry":{"type":"Point","coordinates":[-87.676308,44.095273]}},{"type":"Feature","properties":{"County":"Marathon","Yr_1987":"75,983","Yr_1992":"65,892","Yr_1997":"62,799","Yr_2002":"60,591","Yr_2007":"62,840","Yr_2012":"63,791","Yr_2017":"65,358","":""},"geometry":{"type":"Point","coordinates":[-89.759064,44.902391]}},{"type":"Feature","properties":{"County":"Monroe","Yr_1987":"36,738","Yr_1992":"33,056","Yr_1997":"28,228","Yr_2002":"25,637","Yr_2007":"25,046","Yr_2012":"23,620","Yr_2017":"26,309","":""},"geometry":{"type":"Point","coordinates":[-90.617823,43.943076]}},{"type":"Feature","properties":{"County":"Outagamie","Yr_1987":"43,504","Yr_1992":"39,512","Yr_1997":"34,179","Yr_2002":"33,003","Yr_2007":"37,681","Yr_2012":"38,017","Yr_2017":"33,760","":""},"geometry":{"type":"Point","coordinates":[-88.464925,44.416758]}},{"type":"Feature","properties":{"County":"Shawano","Yr_1987":"48,094","Yr_1992":"43,483","Yr_1997":"37,063","Yr_2002":"37,635","Yr_2007":"36,453","Yr_2012":"36,455","Yr_2017":"36,264","":""},"geometry":{"type":"Point","coordinates":[-88.863563,44.811306]}}]}